,City,Lat,Lng,Max Temp,Humidity,Cloudiness,Wind Speed,Country,Date
0,kentau,43.5206,68.5094,277.47,59,0,3.04,KZ,1612287633
1,severo-kurilsk,50.6789,156.125,270.69,94,25,8.2,RU,1612287634
2,ribeira grande,38.5167,-28.7,286.15,67,40,12.35,PT,1612287635
3,shenzhen,22.5455,114.0683,291.48,89,24,5.08,CN,1612287636
4,barrow,71.2906,-156.7887,241.15,68,1,5.66,US,1612287597
5,punta arenas,-53.15,-70.9167,291.15,55,40,8.23,CL,1612287633
6,beisfjord,68.3751,17.5988,267.15,68,0,3.38,NO,1612287641
7,jamestown,42.097,-79.2353,267.59,86,90,5.66,US,1612287496
8,guerrero negro,27.9769,-114.0611,294.89,34,96,2.12,MX,1612287645
9,rikitea,-23.1203,-134.9692,298.71,76,84,7.35,PF,1612287646
10,riyadh,24.6877,46.7219,293.15,30,0,2.06,SA,1612287585
11,petropavlovsk-kamchatskiy,53.0452,158.6483,262.15,92,90,2.0,RU,1612287649
12,mataura,-46.1927,168.8643,284.88,94,63,0.72,NZ,1612287650
13,arraial do cabo,-22.9661,-42.0278,305.15,54,20,9.26,BR,1612287651
14,hilo,19.7297,-155.09,291.48,72,1,3.6,US,1612287494
15,andenes,69.3143,16.1194,271.15,59,0,5.14,NO,1612287655
16,brunico,46.7958,11.9364,274.26,86,0,0.54,IT,1612287656
17,ushuaia,-54.8,-68.3,285.15,71,75,7.72,AR,1612287434
18,georgetown,5.4112,100.3354,300.15,89,20,1.03,MY,1612287658
19,bethel,41.3712,-73.414,273.71,96,99,6.78,US,1612287373
20,airai,-8.9266,125.4092,289.11,100,97,1.08,TL,1612287661
21,cape town,-33.9258,18.4232,298.15,44,0,6.17,ZA,1612287436
22,akyab,20.15,92.9,290.16,65,0,4.53,MM,1612287667
23,beyneu,45.3167,55.2,278.88,63,97,6.15,KZ,1612287669
24,tasiilaq,65.6145,-37.6368,265.15,86,90,2.06,GL,1612287670
25,tuktoyaktuk,69.4541,-133.0374,239.15,68,20,2.57,CA,1612287672
26,bac lieu,9.285,105.7244,297.4,76,0,6.32,VN,1612287674
27,lichtenfels,50.1457,11.0593,280.93,86,100,0.45,DE,1612287675
28,inhambane,-23.865,35.3833,300.15,89,75,2.57,MZ,1612287516
29,tiksi,71.6872,128.8694,255.06,93,100,7.37,RU,1612287679
30,dekar,-21.5333,21.9333,294.32,89,90,3.58,BW,1612287680
31,khasan,42.4308,130.6434,258.31,83,0,7.81,RU,1612287681
32,butaritari,3.0707,172.7902,300.7,82,72,8.31,KI,1612287684
33,kodiak,57.79,-152.4072,270.15,86,90,1.54,US,1612287686
34,faanui,-16.4833,-151.75,300.37,74,5,6.41,PF,1612287688
35,hobart,-42.8794,147.3294,286.48,76,90,1.67,AU,1612287689
36,biak,-0.9131,122.8766,297.73,84,99,4.62,ID,1612287690
37,muros,42.7762,-9.0603,287.59,91,100,4.47,ES,1612287691
38,cidreira,-30.1811,-50.2056,300.92,70,9,4.23,BR,1612287693
39,vigrestad,58.5667,5.7,270.15,80,75,2.06,NO,1612287694
40,vao,-22.6667,167.4833,297.75,89,100,19.04,NC,1612287696
41,usinsk,65.9939,57.5281,260.86,96,100,5.16,RU,1612287699
42,bluff,-46.6,168.3333,287.04,91,75,3.62,NZ,1612287700
43,batala,31.8186,75.2028,285.15,76,40,3.92,IN,1612287702
44,muncar,-8.4333,114.3333,298.38,87,100,1.73,ID,1612287703
45,lorengau,-2.0226,147.2712,300.42,85,96,5.11,PG,1612287704
46,la romana,18.4273,-68.9728,302.15,74,40,6.17,DO,1612287705
47,hermanus,-34.4187,19.2345,294.48,68,0,2.86,ZA,1612287707
48,miri,4.4148,114.0089,299.15,89,40,3.09,MY,1612287411
49,auki,-8.7676,160.7034,298.79,86,99,2.1,SB,1612287710
50,atuona,-9.8,-139.0333,298.92,77,1,7.28,PF,1612287711
51,bambous virieux,-20.3428,57.7575,300.37,78,40,3.09,MU,1612287712
52,padang,-0.9492,100.3543,298.15,94,40,1.03,ID,1612287713
53,nouadhibou,20.931,-17.0347,297.15,53,0,5.66,MR,1612287716
54,carnarvon,-24.8667,113.6333,299.15,100,90,9.26,AU,1612287717
55,altay,47.8667,88.1167,263.28,79,100,0.91,CN,1612287718
56,vaini,-21.2,-175.2,298.15,100,90,6.69,TO,1612287719
57,busselton,-33.65,115.3333,290.93,74,0,1.79,AU,1612287720
58,baghdad,33.3406,44.4009,286.15,50,0,3.09,IQ,1612287719
59,balaipungut,1.05,101.2833,297.15,94,98,0.37,ID,1612287723
60,coquimbo,-29.9533,-71.3436,291.15,72,75,4.12,CL,1612287725
61,leningradskiy,69.3833,178.4167,255.03,88,100,11.07,RU,1612287726
62,nemuro,43.3236,145.575,264.41,85,6,11.14,JP,1612287729
63,lazaro cardenas,17.9583,-102.2,302.53,50,0,3.17,MX,1612287730
64,lompoc,34.6391,-120.4579,285.93,93,1,2.57,US,1612287447
65,kavieng,-2.5744,150.7967,298.89,89,100,8.2,PG,1612287732
66,naze,28.3667,129.4833,283.93,76,0,8.43,JP,1612287733
67,albany,42.6001,-73.9662,272.04,87,100,0.89,US,1612287736
68,abrau-dyurso,44.69,37.59,282.15,81,67,4.0,RU,1612287737
69,leh,34.1667,77.5833,260.05,63,92,0.08,IN,1612287611
70,kapaa,22.0752,-159.319,292.15,100,1,2.57,US,1612287741
71,torbay,47.6666,-52.7314,272.04,74,90,1.54,CA,1612287742
72,chokurdakh,70.6333,147.9167,254.06,91,77,5.6,RU,1612287744
73,porto velho,-8.7619,-63.9039,301.15,74,75,2.06,BR,1612287548
74,verkhoyansk,67.5447,133.385,236.12,80,100,1.55,RU,1612287480
75,hasaki,35.7333,140.8333,275.15,60,20,2.57,JP,1612287546
76,cayenne,4.9333,-52.3333,302.15,74,75,6.17,GF,1612287748
77,katsuura,35.1333,140.3,279.15,49,20,4.63,JP,1612287750
78,kaka,37.3482,59.6143,281.38,60,0,2.5,TM,1612287751
79,baykit,61.67,96.37,250.89,86,100,1.34,RU,1612287752
80,longyearbyen,78.2186,15.6401,265.15,86,75,3.09,SJ,1612287753
81,ludlow,42.1601,-72.4759,274.26,75,90,5.66,US,1612287755
82,vila do maio,15.1333,-23.2167,299.15,50,0,9.26,CV,1612287756
83,castro,-24.7911,-50.0119,298.79,75,8,1.47,BR,1612287757
84,iqaluit,63.7506,-68.5145,244.15,69,75,2.06,CA,1612287611
85,rio gallegos,-51.6226,-69.2181,300.15,26,0,10.29,AR,1612287688
86,husavik,66.0449,-17.3389,261.15,72,0,3.6,IS,1612287761
87,mar del plata,-38.0023,-57.5575,291.15,94,90,5.14,AR,1612287661
88,saldanha,-33.0117,17.9442,299.15,36,1,7.72,ZA,1612287763
89,hay river,60.8156,-115.7999,249.15,70,100,5.66,CA,1612287764
90,hamilton,39.1834,-84.5333,272.59,59,1,5.66,US,1612287199
91,santa cruz,-17.8,-63.1667,302.15,74,75,10.29,BO,1612287748
92,port alfred,-33.5906,26.891,294.26,87,0,2.68,ZA,1612287759
93,nizhnekamsk,55.6366,51.8245,265.15,93,75,3.0,RU,1612287769
94,sorata,-15.7667,-68.6333,286.81,68,94,4.54,BO,1612287771
95,porto recanati,43.4365,13.6613,281.48,20,55,0.45,IT,1612287772
96,talnakh,69.4865,88.3972,248.48,83,97,2.85,RU,1612287773
97,touho,-20.7833,165.2333,296.14,84,100,9.03,NC,1612287774
98,chuy,-33.6971,-53.4616,303.52,50,17,0.28,UY,1612287775
99,capao da canoa,-29.7456,-50.0097,300.16,75,2,4.32,BR,1612287776
100,esperance,-33.8667,121.9,295.15,40,90,5.66,AU,1612287777
101,san cristobal,7.7669,-72.225,308.15,24,20,10.29,VE,1612287778
102,buriti alegre,-18.14,-49.0403,300.33,72,80,0.55,BR,1612287782
103,yumen,40.2833,97.2,269.98,67,99,6.43,CN,1612287783
104,marsaxlokk,35.8419,14.5431,287.59,88,20,5.66,MT,1612287785
105,ferrol,43.4832,-8.2369,287.59,83,100,0.89,ES,1612287786
106,khatanga,71.9667,102.5,238.36,84,0,4.25,RU,1612287787
107,lae,-6.7221,146.9847,297.17,85,100,5.17,PG,1612287788
108,lancaster,40.2504,-76.2499,275.15,64,90,7.2,US,1612287556
109,boma,7.0805,-2.1697,305.24,30,0,0.41,GH,1612287790
110,assiniboia,49.6334,-105.9845,277.15,52,10,4.63,CA,1612287791
111,saskylakh,71.9167,114.0833,248.2,88,100,8.39,RU,1612287792
112,rudnichnyy,59.617,52.4703,259.91,96,91,3.29,RU,1612287793
113,banjar,-8.19,114.9675,299.15,89,75,5.66,ID,1612287795
114,yuksekova,37.5736,44.2872,272.15,86,33,2.06,TR,1612287796
115,yulara,-25.2406,130.9889,300.15,29,10,4.12,AU,1612287797
116,nikolskoye,59.7035,30.7861,269.26,93,90,4.0,RU,1612287798
117,provideniya,64.3833,-173.3,258.93,92,100,6.94,RU,1612287799
118,manokwari,-0.8667,134.0833,298.81,78,97,2.27,ID,1612287800
119,shagonar,51.5333,92.8,251.04,85,53,0.83,RU,1612287802
120,olafsvik,64.8945,-23.7142,275.28,79,100,7.46,IS,1612287803
121,pevek,69.7008,170.3133,260.72,94,100,3.4,RU,1612287805
122,huarmey,-10.0681,-78.1522,297.58,64,27,4.8,PE,1612287806
123,mount gambier,-37.8333,140.7667,287.15,77,90,4.63,AU,1612287807
124,kathu,7.9178,98.3332,299.15,83,20,1.54,TH,1612287808
125,beringovskiy,63.05,179.3167,260.81,95,100,4.14,RU,1612287809
126,mount isa,-20.7333,139.5,299.15,78,90,5.48,AU,1612287810
127,luanda,-8.8368,13.2343,302.15,65,40,4.12,AO,1612287319
128,ende,-8.8432,121.6623,299.2,77,100,1.77,ID,1612287813
129,petrozavodsk,61.7849,34.3469,256.15,85,84,1.05,RU,1612287814
130,hithadhoo,-0.6,73.0833,301.38,71,100,2.2,MV,1612287815
131,flin flon,54.7682,-101.865,266.15,100,90,2.06,CA,1612287816
132,kaitangata,-46.2817,169.8464,286.86,83,53,1.91,NZ,1612287817
133,utena,55.5,25.6,269.35,97,100,6.94,LT,1612287818
134,mahebourg,-20.4081,57.7,300.15,78,40,3.09,MU,1612287819
135,east london,-33.0153,27.9116,295.15,78,0,7.72,ZA,1612287820
136,lavrentiya,65.5833,-171.0,258.35,91,100,9.89,RU,1612287821
137,kismayo,-0.3582,42.5454,298.58,78,35,6.61,SO,1612287824
138,mayo,38.8876,-76.5119,275.37,80,90,4.12,US,1612287825
139,kutum,14.2,24.6667,296.56,20,18,3.33,SD,1612287826
140,pingzhuang,42.0372,119.2889,251.71,78,9,1.12,CN,1612287827
141,constitucion,-35.3333,-72.4167,293.3,61,10,2.92,CL,1612287828
142,puerto ayora,-0.7393,-90.3518,302.15,70,40,6.17,EC,1612287829
143,fairbanks,64.8378,-147.7164,245.15,69,1,1.68,US,1612287616
144,atambua,-9.1061,124.8925,297.12,87,100,0.31,ID,1612287831
145,jharsuguda,21.85,84.0333,287.52,34,0,1.7,IN,1612287832
146,nanortalik,60.1432,-45.2371,265.55,87,0,6.66,GL,1612287833
147,aden,12.7794,45.0367,297.3,73,1,3.91,YE,1612287651
148,alice springs,-23.7,133.8833,299.15,29,37,3.6,AU,1612287735
149,luwuk,-0.9516,122.7875,298.31,79,100,3.09,ID,1612287837
150,mecca,21.4267,39.8261,297.78,70,0,2.88,SA,1612287838
151,loukhi,66.0764,33.0381,258.28,94,77,1.98,RU,1612287839
152,atasu,48.6814,71.6433,263.21,89,88,2.04,KZ,1612287840
153,derzhavinsk,51.1,66.3167,266.66,96,100,8.57,KZ,1612287841
154,quesnel,52.9999,-122.5029,271.15,86,90,2.06,CA,1612287753
155,dikson,73.5069,80.5464,243.51,82,38,5.96,RU,1612287844
156,abu kamal,34.4506,40.9171,286.61,51,3,3.28,SY,1612287845
157,syasstroy,60.1367,32.5691,267.71,98,99,2.59,RU,1612287846
158,hami,42.8,93.45,269.8,80,80,1.45,CN,1612287847
159,qaanaaq,77.484,-69.3632,252.31,86,100,2.01,GL,1612287848
160,fortuna,40.5982,-124.1573,283.15,100,75,0.66,US,1612287849
161,upernavik,72.7868,-56.1549,250.6,88,100,2.89,GL,1612287850
162,maraba,-5.3686,-49.1178,307.15,55,40,2.06,BR,1612287732
163,bredasdorp,-34.5322,20.0403,296.15,53,0,2.57,ZA,1612287852
164,scottsbluff,41.8666,-103.6672,287.59,30,1,3.6,US,1612287854
165,lapua,62.9693,23.0088,254.15,84,40,2.0,FI,1612287855
166,saint george,37.1041,-113.5841,287.59,50,1,1.54,US,1612287856
167,la ronge,55.1001,-105.2842,265.15,93,90,3.09,CA,1612287858
168,genhe,50.7833,121.5167,236.53,81,48,1.18,CN,1612287859
169,lagoa,39.05,-27.9833,285.9,66,31,15.13,PT,1612287860
170,avarua,-21.2078,-159.775,300.15,78,20,4.63,CK,1612287861
171,raga,8.4596,25.678,301.4,26,34,1.73,SS,1612287863
172,bengkulu,-3.8004,102.2655,297.75,88,99,2.2,ID,1612287865
173,palmer,42.1584,-72.3287,274.26,75,90,5.66,US,1612287787
174,kholmogory,64.2229,41.656,263.15,85,90,4.0,RU,1612287867
175,greencastle,39.6445,-86.8647,274.26,74,90,4.12,US,1612287750
176,namibe,-15.1961,12.1522,296.94,71,8,4.08,AO,1612287869
177,yellowknife,62.456,-114.3525,248.15,70,90,7.72,CA,1612287723
178,najran,17.4924,44.1277,293.15,32,0,3.09,SA,1612287871
179,dudinka,69.4058,86.1778,253.07,92,100,4.14,RU,1612287872
180,jaboticabal,-21.2547,-48.3222,305.15,45,20,3.6,BR,1612287690
181,eucaliptus,-17.5833,-67.5167,292.15,42,40,3.09,BO,1612287874
182,kavaratti,10.5669,72.642,300.85,71,2,2.35,IN,1612287876
183,klaksvik,62.2266,-6.589,276.15,70,38,6.69,FO,1612287877
184,middleton,53.55,-2.2,280.93,89,96,1.34,GB,1612287878
185,kipushi,-11.7667,27.2333,291.26,95,100,1.56,CD,1612287879
186,zabaykalsk,49.6333,117.3167,242.35,82,0,5.14,RU,1612287880
187,nosy varika,-20.5833,48.5333,299.41,77,5,2.19,MG,1612287881
188,norman wells,65.282,-126.8329,245.15,76,90,6.69,CA,1612287882
189,berlevag,70.8578,29.0864,270.15,86,75,10.29,NO,1612287883
190,sarrebourg,48.7333,7.05,285.15,87,75,4.63,FR,1612287884
191,te anau,-45.4167,167.7167,285.13,90,71,0.31,NZ,1612287885
192,new norfolk,-42.7826,147.0587,286.48,69,91,0.54,AU,1612287887
193,kelowna,49.8831,-119.4857,277.59,81,90,1.03,CA,1612287664
194,udachnyy,66.4167,112.4,239.55,81,100,9.54,RU,1612287889
195,hofn,64.2539,-15.2082,273.62,89,100,6.44,IS,1612287890
196,dharchula,29.85,80.5333,281.48,45,0,2.66,IN,1612287891
197,elizabethtown,37.694,-85.8591,273.71,64,40,3.6,US,1612287892
198,carutapera,-1.195,-46.02,303.59,60,63,4.84,BR,1612287893
199,narsaq,60.9167,-46.05,269.15,74,75,4.12,GL,1612287894
200,ormara,25.2088,64.6357,294.92,70,0,5.79,PK,1612287895
201,batemans bay,-35.7167,150.1833,283.71,90,55,3.17,AU,1612287897
202,ola,59.5833,151.2833,245.4,81,95,5.06,RU,1612287898
203,mareeba,-17.0,145.4333,297.15,94,66,0.51,AU,1612287899
204,bechem,7.0903,-2.025,304.77,30,0,1.02,GH,1612287900
205,amurrio,43.05,-3.0,289.82,72,83,4.87,ES,1612287901
206,kon tum,14.35,108.0,288.16,89,8,1.29,VN,1612287904
207,ancud,-41.8697,-73.8203,292.59,62,0,3.13,CL,1612287850
208,pacific grove,36.6177,-121.9166,284.82,93,90,2.67,US,1612287705
209,de land,29.0283,-81.3031,284.26,49,1,5.66,US,1612287907
210,san patricio,28.017,-97.5169,293.15,45,20,3.6,US,1612287908
211,finschhafen,-6.6024,147.8681,299.92,79,100,0.69,PG,1612287909
212,conway,35.0887,-92.4421,276.15,70,1,1.28,US,1612287846
213,soyo,-6.1349,12.3689,299.93,80,100,3.14,AO,1612287912
214,nanga eboko,4.6833,12.3667,300.76,45,74,1.34,CM,1612287913
215,port antonio,18.18,-76.4612,302.15,65,20,3.09,JM,1612287914
216,half moon bay,37.4636,-122.4286,285.93,100,90,2.2,US,1612287915
217,rondonopolis,-16.4708,-54.6356,309.5,38,99,0.95,BR,1612287916
218,praia da vitoria,38.7333,-27.0667,287.15,67,40,13.63,PT,1612287917
219,mehamn,71.0357,27.8492,270.15,63,75,10.29,NO,1612287919
220,comodoro rivadavia,-45.8667,-67.5,300.15,36,0,2.57,AR,1612287764
221,maniitsoq,65.4167,-52.9,254.86,80,0,2.88,GL,1612287922
222,linxia,35.6003,103.2064,271.36,68,24,0.76,CN,1612287923
223,gidam,18.9833,81.4,288.0,33,0,1.21,IN,1612287924
224,puerto lopez,4.0845,-72.956,308.47,31,77,4.1,CO,1612287925
225,college,64.8569,-147.8028,245.15,69,1,1.54,US,1612287926
226,awjilah,29.1081,21.2869,290.1,38,71,3.17,LY,1612287927
227,paso de carrasco,-34.8603,-56.0522,297.15,78,75,4.63,UY,1612287929
228,zafra,38.4167,-6.4167,286.48,82,54,0.89,ES,1612287930
229,shakawe,-18.3667,21.85,296.06,78,70,1.41,BW,1612287931
230,broome,42.2506,-75.833,271.48,80,90,6.69,US,1612287933
231,saint-philippe,-21.3585,55.7679,301.15,74,20,1.03,RE,1612287934
232,rio grande,-32.035,-52.0986,304.15,66,40,5.14,BR,1612287935
233,vila franca do campo,37.7167,-25.4333,287.59,67,20,10.8,PT,1612287936
234,washougal,45.5826,-122.3534,282.15,71,1,6.17,US,1612287938
235,rock springs,41.5875,-109.2029,270.15,68,1,0.17,US,1612287939
236,dicabisagan,17.0818,122.4157,295.98,83,92,4.98,PH,1612287940
237,salalah,17.0151,54.0924,297.15,53,0,0.51,OM,1612287941
238,henties bay,-22.116,14.2845,292.04,85,13,5.13,NA,1612287943
239,coahuayana,18.7333,-103.6833,299.15,57,40,2.76,MX,1612287944
240,orikum,40.3253,19.4714,287.04,72,90,1.86,AL,1612287945
241,general roca,-39.0333,-67.5833,302.15,23,0,2.06,AR,1612287946
242,salinopolis,-0.6136,-47.3561,302.28,68,75,5.74,BR,1612287796
243,caravelas,-17.7125,-39.2481,302.46,59,56,4.54,BR,1612287949
244,ikalamavony,-21.15,46.5833,296.32,82,75,3.48,MG,1612287950
245,homer,59.6425,-151.5483,265.93,57,90,1.54,US,1612287951
246,avera,33.194,-82.5271,283.15,46,40,7.72,US,1612287953
247,isangel,-19.55,169.2667,300.4,83,73,10.29,VU,1612287954
248,victoria,22.2855,114.1577,290.93,82,19,11.08,HK,1612287797
249,monrovia,6.3005,-10.7969,299.15,89,75,4.07,LR,1612287956
250,maneadero,31.7167,-116.5667,289.82,89,97,0.45,MX,1612287673
251,tupiza,-21.45,-65.7167,296.91,31,84,5.33,BO,1612287958
252,lasa,46.6166,10.7002,275.93,80,0,2.57,IT,1612287959
253,nzega,-2.479,29.5564,287.23,95,51,1.36,RW,1612287960
254,kudahuvadhoo,2.6708,72.8944,300.94,77,89,7.24,MV,1612287961
255,camacha,33.0833,-16.3333,291.15,68,75,2.06,PT,1612287963
256,sao filipe,14.8961,-24.4956,297.19,67,4,3.72,CV,1612287964
257,haines junction,60.7522,-137.5108,244.15,76,100,1.13,CA,1612287966
258,tuatapere,-46.1333,167.6833,286.24,89,64,1.78,NZ,1612287967
259,hornepayne,49.2138,-84.7705,262.07,93,51,2.19,CA,1612287968
260,port blair,11.6667,92.75,298.51,81,0,5.03,IN,1612287969
261,krasnoyarskaya,47.6501,42.0443,280.38,78,91,3.73,RU,1612287971
262,boston,42.3584,-71.0598,273.71,93,90,8.75,US,1612287483
263,campbeltown,55.4258,-5.6076,276.15,87,100,14.92,GB,1612287973
264,shelby,35.2001,-89.8668,278.15,60,90,6.17,US,1612287975
265,clyde river,70.4692,-68.5914,239.15,68,40,2.57,CA,1612287976
266,cherskiy,68.75,161.3,255.34,84,46,1.08,RU,1612287978
267,butte,39.6499,-121.5677,285.15,82,90,5.66,US,1612287741
268,bathurst,-33.4166,149.5806,285.93,84,18,1.6,AU,1612287981
269,salumbar,24.1333,74.05,292.93,24,54,2.17,IN,1612287982
270,san quintin,30.4833,-115.95,293.14,48,100,2.14,MX,1612287983
271,richards bay,-28.783,32.0377,294.55,74,100,1.2,ZA,1612287984
272,tura,25.5198,90.2201,287.66,51,0,1.03,IN,1612287985
273,abu samrah,35.3029,37.1841,284.77,62,70,5.0,SY,1612287986
274,noumea,-22.2763,166.4572,298.15,100,75,7.2,NC,1612287968
275,misrikh,27.45,80.5167,286.97,50,0,1.81,IN,1612287988
276,alofi,-19.0595,-169.9187,298.15,94,100,1.54,NU,1612287991
277,halifax,44.6453,-63.5724,275.93,93,100,14.92,CA,1612287830
278,port macquarie,-31.4333,152.9167,290.37,90,11,0.45,AU,1612287993
279,anicuns,-16.4611,-49.9617,300.58,74,89,1.28,BR,1612287994
280,kilindoni,-7.9139,39.6668,300.78,70,67,4.57,TZ,1612287995
281,limbuhan,11.8838,124.0501,299.34,82,58,8.48,PH,1612287996
282,portland,45.5234,-122.6762,282.04,81,75,5.66,US,1612287523
283,molepolole,-24.4066,25.4951,296.15,68,90,5.14,BW,1612287998
284,whitefish,48.4111,-114.3376,275.37,93,90,2.32,US,1612287999
285,cabo san lucas,22.8909,-109.9124,299.82,49,40,1.03,MX,1612287972
286,port-gentil,-0.7193,8.7815,302.15,79,20,4.63,GA,1612288002
287,codrington,-38.2667,141.9667,287.5,79,76,3.02,AU,1612288003
288,berbera,10.4396,45.0143,298.22,52,0,3.26,SO,1612288004
289,balkhash,46.844,74.9804,262.3,88,23,0.47,KZ,1612288006
290,zhezkazgan,47.8043,67.7144,264.77,89,81,2.35,KZ,1612288007
291,sisimiut,66.9395,-53.6735,252.76,81,2,4.85,GL,1612288008
292,heihe,50.2441,127.4902,246.15,63,20,3.0,CN,1612288010
293,price,39.5994,-110.8107,274.15,60,1,0.7,US,1612288011
294,saint-francois,46.4154,3.9054,287.15,77,90,2.57,FR,1612288012
295,port hardy,50.6996,-127.4199,278.15,100,75,2.06,CA,1612287902
296,tiznit,29.5833,-9.5,294.44,45,95,1.46,MA,1612288014
297,khandbari,27.3747,87.2039,283.41,56,7,1.17,NP,1612288015
298,manoel urbano,-8.8389,-69.2597,303.54,67,69,2.07,BR,1612288016
299,moose factory,51.2585,-80.6094,258.15,85,90,1.54,CA,1612288017
300,wajima,37.4,136.9,276.93,74,92,13.63,JP,1612288020
301,lebu,-37.6167,-73.65,290.73,64,45,7.4,CL,1612288021
302,bulgan,48.8125,103.5347,256.08,82,34,1.6,MN,1612288022
303,saintes,45.6667,-0.75,287.15,82,90,6.17,FR,1612288023
304,panuco,22.05,-98.1667,294.15,60,40,1.03,MX,1612288024
305,shimoda,34.6667,138.95,275.37,56,0,0.45,JP,1612288026
306,ariquemes,-9.9133,-63.0408,303.8,64,92,0.25,BR,1612288027
307,mandan,46.8267,-100.8896,269.26,100,90,5.21,US,1612288004
308,pangnirtung,66.1451,-65.7125,243.15,57,75,1.54,CA,1612288029
309,burnie,-41.0667,145.9167,286.48,86,74,1.34,AU,1612288030
310,korla,41.7597,86.1469,269.97,81,89,1.05,CN,1612288032
311,jiangkou,25.4872,119.1986,285.15,71,75,4.0,CN,1612288033
312,ponta do sol,32.6667,-17.1,289.82,65,78,1.34,PT,1612288034
313,luderitz,-26.6481,15.1594,292.42,80,0,6.17,NA,1612288036
314,sitka,57.0531,-135.33,272.15,69,40,2.57,US,1612288037
315,malanje,-9.5402,16.341,293.05,93,91,2.13,AO,1612288038
316,owando,-0.4819,15.8999,300.57,64,90,0.72,CG,1612287921
317,arvika,59.6553,12.5852,268.15,93,90,4.12,SE,1612288040
318,birin,26.8865,88.0718,280.76,72,0,1.88,NP,1612288041
319,ekhabi,53.5102,142.9671,241.67,83,100,7.18,RU,1612288042
320,cockburn town,21.4612,-71.1419,299.15,73,40,4.12,TC,1612288044
321,taksimo,56.3444,114.8794,242.02,74,96,1.75,RU,1612288047
322,okha,53.5739,142.9478,241.94,83,100,7.53,RU,1612288048
323,aklavik,68.2191,-135.0107,241.15,75,20,3.6,CA,1612288049
324,kerema,-7.9631,145.7785,297.83,88,100,3.09,PG,1612288050
325,urucui,-7.2294,-44.5561,305.33,51,24,4.27,BR,1612288052
326,luis correia,-2.8792,-41.6669,306.15,52,20,10.29,BR,1612288053
327,asau,46.4333,26.4,273.71,70,18,2.13,RO,1612288054
328,maceio,-9.6658,-35.7353,303.15,58,40,7.2,BR,1612287967
329,kitaibaraki,36.7833,140.75,272.59,53,30,1.83,JP,1612288056
330,balykshi,47.0667,51.8667,277.15,75,0,5.0,KZ,1612288057
331,peniche,39.3558,-9.3811,287.04,77,100,7.6,PT,1612288048
332,gawler,-34.6,138.7333,288.71,68,0,5.36,AU,1612288059
333,sinaloa,25.0,-107.5,300.37,56,75,1.23,MX,1612288060
334,geraldton,-28.7667,114.6,296.15,83,75,5.14,AU,1612288062
335,vastseliina,57.7303,27.2932,268.15,86,75,4.0,EE,1612288063
336,gobabis,-22.45,18.9667,300.15,28,24,4.54,NA,1612288064
337,saint anthony,45.0205,-93.218,268.15,79,90,3.6,US,1612288065
338,muzhi,65.3667,64.6667,262.48,95,100,2.26,RU,1612288066
339,port elizabeth,-33.918,25.5701,295.15,78,0,7.2,ZA,1612288067
340,lethem,3.3803,-59.7968,306.32,43,60,4.86,GY,1612288068
341,sur,22.5667,59.5289,292.26,73,0,0.23,OM,1612288070
342,yarada,17.65,83.2667,293.15,77,0,1.03,IN,1612288071
343,raton,36.9034,-104.4391,282.15,40,1,2.06,US,1612288073
344,zabid,14.1951,43.3152,297.72,64,11,6.17,YE,1612288074
345,abha,18.2164,42.5053,291.15,67,0,2.06,SA,1612288075
346,lons-le-saunier,46.75,5.75,284.26,96,100,3.58,FR,1612288076
347,havelock,34.8791,-76.9013,279.26,56,90,7.2,US,1612288077
348,belaya gora,68.5333,146.4167,244.45,88,99,2.81,RU,1612288079
349,kazanka,47.8462,32.8218,273.15,100,90,1.58,UA,1612288080
350,sheopur,25.6667,76.7,292.24,27,0,1.81,IN,1612288042
351,stonewall,50.1344,-97.3268,266.48,86,90,9.26,CA,1612287904
352,honiara,-9.4333,159.95,298.71,82,92,2.05,SB,1612288083
353,laguna,38.421,-121.4238,284.26,87,90,3.09,US,1612288084
354,katangli,51.7102,143.2326,241.88,80,100,4.94,RU,1612288085
355,yairipok,24.6667,94.0667,282.93,71,1,0.54,IN,1612288089
356,hambantota,6.1241,81.1185,299.07,77,42,9.17,LK,1612288090
357,labytnangi,66.6572,66.4183,258.22,93,100,2.51,RU,1612288091
358,aksu,41.1231,80.2644,268.86,80,0,0.2,CN,1612288092
359,tecolutla,20.4833,-97.0167,296.15,60,40,2.57,MX,1612288094
360,pisco,-13.7,-76.2167,297.59,73,0,5.14,PE,1612287870
361,oume,35.7839,139.2431,275.37,80,1,1.05,JP,1612288097
362,muisne,0.6,-80.0333,301.15,89,75,2.57,EC,1612288098
363,chatakonda,17.55,80.65,291.73,72,0,2.01,IN,1612288099
364,kidal,18.4411,1.4078,298.38,16,0,3.44,ML,1612288100
365,havre-saint-pierre,50.2334,-63.5986,268.15,46,75,6.17,CA,1612288101
366,touros,-5.1989,-35.4608,304.15,55,75,8.75,BR,1612288104
367,fez,34.0372,-4.9998,293.15,49,0,1.54,MA,1612288105
368,leesburg,39.1157,-77.5636,274.82,84,100,5.81,US,1612288107
369,kununurra,-15.7667,128.7333,299.15,100,40,1.54,AU,1612288108
370,bowen,-20.0167,148.2333,297.15,94,40,1.54,AU,1612288109
371,zhangye,38.9342,100.4517,267.72,64,19,0.36,CN,1612287917
372,vostok,46.4856,135.8833,240.43,85,100,3.53,RU,1612288112
373,jalu,29.0331,21.5482,290.32,37,75,3.43,LY,1612288113
374,chake chake,-5.2459,39.7666,300.13,72,100,4.81,TZ,1612288115
375,foki,56.693,54.3499,261.67,97,65,1.7,RU,1612288116
376,grindavik,63.8424,-22.4338,275.15,64,75,11.32,IS,1612288117
377,umm lajj,25.0213,37.2685,297.19,76,43,1.23,SA,1612288118
378,kharitonovo,61.4009,47.4978,265.95,96,100,4.4,RU,1612288120
379,errol,56.3923,-3.2128,276.15,93,75,9.77,GB,1612288121
380,brunswick,41.2381,-81.8418,272.04,63,75,9.26,US,1612288122
381,coxim,-18.5067,-54.76,308.98,40,68,1.74,BR,1612288123
382,gushikawa,26.3544,127.8686,289.15,71,20,5.66,JP,1612288125
383,poum,-20.2333,164.0167,297.95,83,99,12.12,NC,1612288126
384,fort nelson,58.8053,-122.7002,250.15,77,90,3.09,CA,1612288128
385,margate,51.3813,1.3862,284.26,79,8,2.68,GB,1612287905
386,biltine,14.5333,20.9167,299.66,16,0,4.25,TD,1612288132
387,komsomolskiy,40.4272,71.7189,278.15,60,31,2.06,UZ,1612288133
388,karratha,-20.7377,116.8463,300.2,83,88,7.23,AU,1612288136
389,carasova,45.1986,21.87,278.15,87,90,1.03,RO,1612288138
390,kaoma,-14.7833,24.8,293.78,87,100,1.41,ZM,1612288139
391,manacapuru,-3.2997,-60.6206,299.15,89,75,3.6,BR,1612288141
392,sola,-13.8833,167.55,300.74,80,84,11.54,VU,1612288142
393,watertown,42.3709,-71.1828,273.71,86,90,6.69,US,1612288143
394,umarkot,25.3616,69.7362,292.61,38,0,3.95,PK,1612287845
395,oistins,13.0667,-59.5333,302.15,54,40,9.26,BB,1612288146
396,kahului,20.8947,-156.47,292.15,94,20,1.54,US,1612288147
397,thunder bay,48.4001,-89.3168,270.37,68,75,1.54,CA,1612288148
398,kuvshinovo,57.0295,34.1725,264.59,96,100,2.85,RU,1612288149
399,vardo,70.3705,31.1107,270.15,74,75,8.75,NO,1612288150
400,rochegda,62.8,43.25,260.24,96,95,2.39,RU,1612288151
401,ambagarh chauki,20.7833,80.7167,288.89,30,0,2.23,IN,1612288156
402,zhoucheng,35.9122,116.3117,273.91,83,0,3.18,CN,1612288157
403,mutsu,41.2894,141.2169,266.15,79,75,2.06,JP,1612288158
404,churapcha,62.0025,132.4325,231.36,80,100,1.99,RU,1612288160
405,nurota,40.5614,65.6886,277.15,87,0,2.06,UZ,1612288161
406,victor harbor,-35.5667,138.6167,288.15,92,4,4.89,AU,1612288162
407,umm kaddadah,13.6017,26.6876,298.71,19,0,1.63,SD,1612288164
408,bonthe,7.5264,-12.505,301.96,67,31,5.52,SL,1612288167
409,los llanos de aridane,28.6585,-17.9182,292.15,77,90,3.09,ES,1612288125
410,mabay,6.0577,124.4666,298.16,79,76,2.12,PH,1612288169
411,oranjemund,-28.55,16.4333,292.4,81,0,3.42,NA,1612288170
412,marsh harbour,26.5412,-77.0636,287.98,70,63,14.83,BS,1612288171
413,sam chuk,14.7576,100.0899,300.93,61,0,0.78,TH,1612288172
414,bogorodskoye,56.55,37.8833,264.42,96,62,2.08,RU,1612288173
415,sayyan,15.1718,44.3244,282.3,47,19,2.32,YE,1612288174
416,baicheng,45.6167,122.8167,248.59,79,0,3.0,CN,1612288176
417,thompson,55.7435,-97.8558,264.15,92,90,2.06,CA,1612287903
418,jagannathpur,22.2333,85.65,286.39,37,0,0.11,IN,1612288178
419,palu,-0.8917,119.8707,297.87,82,100,0.59,ID,1612288179
420,atagay,55.1033,99.3875,256.76,90,100,1.34,RU,1612288180
421,urumqi,43.801,87.6005,265.15,86,100,2.0,CN,1612287604
422,gorom-gorom,14.4439,-0.2361,297.79,14,3,2.87,BF,1612288182
423,puri,19.8,85.85,290.15,82,0,1.14,IN,1612287912
424,morgan city,29.6994,-91.2068,285.93,57,1,2.57,US,1612288184
425,qui nhon,13.7667,109.2333,294.58,88,84,4.56,VN,1612288186
426,obuasi,6.206,-1.6619,302.7,55,39,1.98,GH,1612288187
427,celestun,20.8667,-90.4,294.0,59,86,5.21,MX,1612288189
428,mirnyy,62.5353,113.9611,234.23,81,86,4.06,RU,1612288190
429,sinnamary,5.3833,-52.95,299.6,84,80,7.03,GF,1612288192
430,lufilufi,-13.8745,-171.5986,301.15,83,75,6.17,WS,1612288194
431,brainerd,46.358,-94.2008,265.93,93,90,2.57,US,1612288196
432,zhanakorgan,43.9098,67.2495,274.14,84,0,0.7,KZ,1612288197
433,santa cruz de la palma,28.6835,-17.7642,292.15,77,90,3.09,ES,1612287910
434,caraballeda,10.6112,-66.8522,301.15,61,20,5.18,VE,1612288200
435,bubaque,11.2833,-15.8333,298.79,73,27,6.26,GW,1612288202
436,san alberto,7.7611,-73.3922,307.59,41,22,1.88,CO,1612288204
437,bay city,43.5945,-83.8889,272.04,50,1,6.17,US,1612288048
438,upington,-28.4478,21.2561,300.15,44,40,3.6,ZA,1612288207
439,amga,60.8953,131.9608,233.96,79,100,2.6,RU,1612288209
440,guaranda,-1.6,-79.0,293.15,52,75,5.14,EC,1612288211
441,tromso,69.6496,18.957,265.93,92,20,1.54,NO,1612288146
442,ballina,-28.8667,153.5667,295.15,83,75,3.6,AU,1612288213
443,tezu,27.9167,96.1667,289.31,42,5,1.71,IN,1612288214
444,dera ghazi khan,30.0561,70.6348,289.0,31,0,3.09,PK,1612288216
445,soreang,-7.0331,107.5183,294.44,80,94,1.33,ID,1612288217
446,whitehorse,60.7161,-135.0538,248.15,70,40,4.12,CA,1612288089
447,bull savanna,17.8868,-77.5902,298.8,70,10,1.84,JM,1612288219
448,grand gaube,-20.0064,57.6608,300.37,79,2,1.79,MU,1612288220
449,bima,-8.4667,118.7167,298.53,87,100,1.0,ID,1612288221
450,erzin,36.9559,36.2,289.82,62,100,4.47,TR,1612288223
451,valparaiso,-33.0393,-71.6273,291.48,77,90,2.57,CL,1612288225
452,coari,-4.085,-63.1414,300.34,92,96,1.85,BR,1612288227
453,wattegama,6.7989,81.4808,295.84,91,74,3.42,LK,1612288229
454,klyuchi,52.2667,79.1667,257.37,93,96,3.51,RU,1612288230
455,zagan,51.6176,15.3149,275.93,89,100,0.45,PL,1612288141
456,russell,32.3502,-85.1999,281.48,42,1,8.23,US,1612288232
457,karatau,43.1667,70.4667,274.12,93,97,1.93,KZ,1612288233
458,tonantins,-2.8731,-67.8022,300.64,85,99,1.29,BR,1612288234
459,ilulissat,69.2167,-51.1,254.15,78,75,8.75,GL,1612288235
460,tahta,26.7693,31.5021,293.15,32,0,3.09,EG,1612287973
461,faya,18.3851,42.4509,291.15,67,0,2.06,SA,1612288238
462,bonavista,48.6499,-53.1147,272.15,69,83,1.03,CA,1612288240
463,namatanai,-3.6667,152.4333,298.4,90,100,4.99,PG,1612288241
464,cap malheureux,-19.9842,57.6142,300.37,79,2,1.79,MU,1612288242
465,scarborough,54.2797,-0.4044,277.04,94,100,3.13,GB,1612288243
466,mahibadhoo,3.7833,72.9667,301.46,77,9,8.3,MV,1612288244
467,itoman,26.1247,127.6694,289.15,55,40,6.17,JP,1612288245
468,kirando,-7.4167,30.6,296.62,72,76,1.86,TZ,1612288248
469,bambanglipuro,-7.95,110.2833,299.04,85,100,3.24,ID,1612288250
470,flinders,-34.5833,150.8552,290.37,72,90,3.6,AU,1612288251
471,ubrique,36.6778,-5.446,291.15,77,75,3.09,ES,1612288254
472,casa nova,-9.4167,-41.1333,308.15,36,40,3.09,BR,1612288255
473,ulcinj,41.9294,19.2244,284.15,93,75,0.51,ME,1612288256
474,acajutla,13.5928,-89.8275,304.08,37,0,2.88,SV,1612288258
475,paamiut,61.994,-49.6678,259.67,85,0,8.35,GL,1612288259
476,montepuez,-13.1256,38.9997,296.07,88,49,1.03,MZ,1612288261
477,oriximina,-1.7656,-55.8661,304.7,62,58,2.05,BR,1612288262
478,tyukhtet,56.5389,89.3011,263.76,94,98,4.09,RU,1612288264
479,smithers,54.7804,-127.1743,269.15,93,90,1.03,CA,1612288265
480,wilmington,34.2257,-77.9447,280.93,58,90,7.2,US,1612288263
481,kargasok,59.0556,80.8572,259.18,95,100,2.86,RU,1612288267
482,itaituba,-4.2761,-55.9836,305.15,66,40,4.12,BR,1612288268
483,de-kastri,51.4667,140.7833,243.85,81,100,4.05,RU,1612288269
484,odienne,9.51,-7.5692,305.68,12,7,1.33,CI,1612288270
485,eldoret,0.5204,35.2699,294.15,37,75,2.57,KE,1612288057
486,jega,12.2175,4.3792,302.17,14,0,3.58,NG,1612288273
487,lamu,-2.2717,40.902,298.65,81,90,6.7,KE,1612288274
488,conceicao do araguaia,-8.2578,-49.2647,305.05,55,70,2.46,BR,1612288275
489,jiaonan,35.8786,119.9753,275.37,68,0,1.0,CN,1612288206
490,harrogate,53.9908,-1.5373,276.15,100,90,4.12,GB,1612288277
491,bud,39.447,-86.1758,274.26,59,1,5.66,US,1612288278
492,saint-pierre,-21.3393,55.4781,301.15,74,20,1.03,RE,1612288279
493,adrar,20.5022,-10.0711,300.18,15,48,3.65,MR,1612288281
494,kosh-agach,50.0,88.6667,254.15,74,16,0.6,RU,1612288282
495,tautira,-17.7333,-149.15,301.15,74,20,1.03,PF,1612288283
496,waipawa,-41.4122,175.5153,286.15,82,15,3.09,NZ,1612288284
497,cortez,37.3489,-108.5859,278.15,65,90,0.61,US,1612288285
498,seabra,-12.4186,-41.7703,300.97,58,61,2.72,BR,1612288034
499,almaznyy,48.0448,40.045,281.15,100,40,4.0,RU,1612288287
500,ust-kulom,61.6864,53.6902,262.78,96,98,2.88,RU,1612288288
501,guangyuan,32.442,105.823,277.04,90,90,0.45,CN,1612288289
502,lucapa,-8.4192,20.7447,293.57,95,70,1.17,AO,1612288291
503,nelson bay,-32.7167,152.15,291.48,94,75,3.09,AU,1612288292
504,zeya,53.75,127.2667,241.14,79,78,1.98,RU,1612288293
505,dhone,15.4167,77.8833,294.98,67,0,5.09,IN,1612288294
506,nicolas bravo,18.45,-88.9167,294.15,52,75,5.66,MX,1612288295
507,alexandria,31.2156,29.9553,291.15,88,40,3.6,EG,1612287701
508,outjo,-20.1167,16.15,299.14,35,73,3.74,NA,1612288297
509,mendi,-6.1761,143.6513,286.53,99,98,0.73,PG,1612288298
510,trenggalek,-8.05,111.7167,297.21,86,100,1.22,ID,1612288300
511,iralaya,15.0,-83.2333,300.15,81,40,7.72,HN,1612288301
512,ixtapa,20.7,-105.2,296.15,83,90,3.6,MX,1612288302
513,shache,38.4167,77.2406,271.91,77,99,1.04,CN,1612288228
514,stornoway,58.2093,-6.3865,277.15,60,40,8.75,GB,1612288305
515,nataga,2.5436,-75.8085,299.91,52,42,1.47,CO,1612288307
516,ucluelet,48.9329,-125.5528,279.26,100,40,2.57,CA,1612288308
517,oranjestad,12.524,-70.027,302.15,65,40,9.77,AW,1612288231
518,anlu,31.1661,112.5831,282.11,61,53,1.45,CN,1612288310
519,azul,-36.777,-59.8585,297.59,52,66,1.34,AR,1612288229
520,teya,60.3778,92.6267,252.73,86,100,2.35,RU,1612288312
521,bella vista,36.4295,-94.2316,281.48,65,1,1.54,US,1612288313
522,roblin,51.23,-101.3565,269.72,96,100,5.9,CA,1612288315
523,verona,45.4167,11.0333,279.26,93,90,2.06,IT,1612288316
524,port augusta,-32.5,137.7667,291.15,63,0,3.6,AU,1612288318
525,kruisfontein,-34.0033,24.7314,296.48,68,0,1.79,ZA,1612288038
526,kljuc,44.535,16.7722,275.15,100,90,1.03,BA,1612288320
527,inverness,57.4791,-4.224,275.37,80,20,5.66,GB,1612288321
528,marivan,35.5219,46.176,278.23,63,0,1.63,IR,1612288323
529,aquin,18.2833,-73.4,300.1,66,10,2.35,HT,1612288324
530,bathsheba,13.2167,-59.5167,302.15,54,40,9.26,BB,1612288325
531,moguer,37.2756,-6.8385,288.71,71,55,2.68,ES,1612288326
532,bandundu,-3.3167,17.3667,298.71,78,100,1.38,CD,1612288328
533,walvis bay,-22.9575,14.5053,293.15,73,23,3.6,NA,1612288331
534,bardiyah,31.7561,25.0865,288.65,77,100,4.24,LY,1612288332
535,shieli,44.1667,66.75,273.01,88,0,1.61,KZ,1612288334
536,nanakuli,21.3906,-158.1547,292.15,94,90,3.89,US,1612288335
537,senanga,-16.1167,23.2667,295.16,84,74,0.63,ZM,1612288336
538,cabrobo,-8.5142,-39.31,308.23,27,73,5.44,BR,1612288338
539,aguimes,27.9054,-15.4461,294.26,77,20,4.63,ES,1612288340
540,vicuna,-30.0319,-70.7081,299.26,29,2,1.34,CL,1612288341
541,aranos,-24.1333,19.1167,302.3,23,16,6.2,NA,1612288342
542,bacolod,10.6667,122.95,298.09,83,89,6.11,PH,1612288343
543,jacareacanga,-6.2222,-57.7528,308.15,52,20,3.6,BR,1612288344
544,bereda,43.2686,-7.5406,285.93,99,100,2.24,ES,1612288347
545,cururupu,-1.8283,-44.8683,304.16,56,62,3.79,BR,1612288348
546,ossora,59.2353,163.0719,256.32,91,100,1.04,RU,1612288349
547,pervomayskoye,43.919,46.7102,278.95,92,88,3.57,RU,1612288350
548,ojinaga,29.5667,-104.4167,290.37,30,1,0.41,MX,1612288351
549,coos bay,43.3665,-124.2179,283.15,87,75,4.12,US,1612288352
550,nautla,20.2167,-96.7833,293.79,65,1,2.66,MX,1612288353
551,deputatskiy,69.3,139.9,242.96,88,100,1.72,RU,1612288354
552,monduli,-3.3,36.45,298.15,44,40,5.14,TZ,1612288355
553,seoul,37.5683,126.9778,265.15,57,0,1.54,KR,1612288247
554,ostroda,53.6967,19.9649,273.15,100,90,3.6,PL,1612288262
555,horodnytsya,50.807,27.3168,268.97,97,51,3.27,UA,1612288359
556,camacupa,-12.0167,17.4833,291.25,95,99,2.95,AO,1612288356
557,lashio,22.9333,97.75,283.33,52,0,0.73,MM,1612288361
