,City,Lat,Lng,Max Temp,Humidity,Cloudiness,Wind Speed,Country,Date
0,port alfred,-33.5906,26.891,66.99,89,0,1.01,ZA,1612296107
1,mansa,29.9833,75.3833,54.97,42,0,5.32,IN,1612296108
2,talnakh,69.4865,88.3972,-10.71,83,100,6.24,RU,1612296110
3,ushuaia,-54.8,-68.3,53.6,82,75,14.97,AR,1612296112
4,ukiah,39.1502,-123.2078,53.6,66,90,3.44,US,1612296002
5,lebu,-37.6167,-73.65,62.76,67,44,14.14,CL,1612296114
6,nikolskoye,59.7035,30.7861,24.8,86,90,6.71,RU,1612296115
7,faya,18.3851,42.4509,60.8,72,0,2.66,SA,1612296116
8,dingle,10.9995,122.6711,73.74,92,100,8.21,PH,1612296118
9,saint george,37.1041,-113.5841,60.8,41,75,6.91,US,1612295860
10,dobson,36.3957,-80.7226,35.6,64,90,16.11,US,1612296121
11,honningsvag,70.9821,25.9704,28.4,69,75,31.07,NO,1612296122
12,qaanaaq,77.484,-69.3632,-7.6,85,100,4.45,GL,1612296123
13,punta arenas,-53.15,-70.9167,69.8,49,40,22.88,CL,1612295871
14,aklavik,68.2191,-135.0107,-25.6,68,40,4.61,CA,1612296126
15,atar,20.5169,-13.0499,76.33,16,0,9.82,MR,1612296127
16,huarmey,-10.0681,-78.1522,75.54,65,4,11.05,PE,1612296128
17,cardston,49.2,-113.3019,42.8,56,6,11.5,CA,1612296129
18,ribeira grande,38.5167,-28.7,53.6,71,40,23.02,PT,1612296130
19,tiksi,71.6872,128.8694,-0.67,93,100,15.43,RU,1612296131
20,spremberg,51.5697,14.3736,37.0,90,100,1.01,DE,1612296132
21,rikitea,-23.1203,-134.9692,77.97,76,50,14.52,PF,1612296133
22,saint-philippe,-21.3585,55.7679,80.6,78,0,2.3,RE,1612296135
23,puerto ayora,-0.7393,-90.3518,84.2,65,0,17.27,EC,1612296136
24,faanui,-16.4833,-151.75,81.34,74,6,14.54,PF,1612296137
25,iqaluit,63.7506,-68.5145,-18.4,63,75,5.75,CA,1612296138
26,atuona,-9.8,-139.0333,77.92,81,3,17.49,PF,1612296139
27,fortuna,40.5982,-124.1573,53.01,81,1,3.83,US,1612296110
28,imeni babushkina,59.7573,43.1285,15.51,97,99,6.08,RU,1612296141
29,quatre cocos,-20.2078,57.7625,80.6,78,40,11.5,MU,1612296143
30,khatanga,71.9667,102.5,-29.74,84,38,8.99,RU,1612296145
31,bluff,-46.6,168.3333,58.6,87,100,7.54,NZ,1612296146
32,sisimiut,66.9395,-53.6735,-5.49,82,0,12.08,GL,1612296147
33,cidreira,-30.1811,-50.2056,80.64,75,0,11.21,BR,1612296148
34,tuktoyaktuk,69.4541,-133.0374,-31.0,68,20,6.91,CA,1612296149
35,vaini,-21.2,-175.2,77.0,100,90,10.36,TO,1612296150
36,molina,-35.1167,-71.2833,80.6,39,0,5.75,CL,1612296151
37,hambantota,6.1241,81.1185,77.86,77,23,18.52,LK,1612296152
38,deputatskiy,69.3,139.9,-22.83,88,100,3.15,RU,1612296154
39,mar del plata,-38.0023,-57.5575,69.01,88,90,8.05,AR,1612296155
40,owando,-0.4819,15.8999,79.05,71,34,3.11,CG,1612296156
41,arlit,18.7369,7.3853,70.59,20,0,10.63,NE,1612296157
42,gamba,-2.65,10.0,78.08,84,10,4.92,GA,1612296159
43,ketchikan,55.3422,-131.6461,35.6,93,75,4.61,US,1612296160
44,bethel,41.3712,-73.414,32.0,86,90,10.36,US,1612296162
45,kamaishi,39.2667,141.8833,22.21,86,0,6.08,JP,1612296164
46,tuatapere,-46.1333,167.6833,60.08,82,100,3.33,NZ,1612296166
47,kenora,49.8167,-94.4337,21.2,79,90,12.66,CA,1612295885
48,santa lucia,27.9117,-15.5407,66.0,82,20,11.5,ES,1612296168
49,port elizabeth,-33.918,25.5701,69.8,83,40,9.22,ZA,1612296169
50,calama,-22.4667,-68.9333,77.0,14,0,20.71,CL,1612296170
51,oktyabrskoye,43.0645,44.7417,26.6,93,11,6.71,RU,1612296172
52,antofagasta,-23.65,-70.4,73.0,64,40,19.57,CL,1612296174
53,chokurdakh,70.6333,147.9167,-5.48,89,87,11.16,RU,1612296175
54,tambura,5.6,27.4667,80.01,26,62,2.82,SS,1612296177
55,eenhana,-17.4667,16.3333,82.4,30,70,1.14,NA,1612296178
56,upernavik,72.7868,-56.1549,-7.58,87,100,5.7,GL,1612296179
57,klaksvik,62.2266,-6.589,37.4,70,20,14.97,FO,1612296180
58,barrow,71.2906,-156.7887,-22.0,76,1,12.66,US,1612296181
59,ashland,40.8167,-82.2665,27.0,74,90,17.27,US,1612295966
60,victoria,22.2855,114.1577,63.0,81,78,1.99,HK,1612295903
61,bengkulu,-3.8004,102.2655,75.22,89,100,5.86,ID,1612296185
62,cape town,-33.9258,18.4232,71.01,83,0,17.27,ZA,1612296184
63,bredasdorp,-34.5322,20.0403,64.4,77,0,2.3,ZA,1612296187
64,bangaon,23.0667,88.8167,59.0,67,0,4.59,IN,1612296188
65,tucuma,-0.1833,-50.05,80.51,84,100,8.68,BR,1612296189
66,wichita falls,33.9137,-98.4934,64.99,27,1,14.97,US,1612296124
67,mirnyy,62.5353,113.9611,-36.89,81,99,9.86,RU,1612296193
68,mahebourg,-20.4081,57.7,80.6,78,40,11.5,MU,1612295940
69,touros,-5.1989,-35.4608,82.4,65,40,17.27,BR,1612296195
70,shenjiamen,29.9576,122.298,44.53,71,3,6.93,CN,1612296196
71,busselton,-33.65,115.3333,66.0,89,10,4.0,AU,1612296169
72,port hardy,50.6996,-127.4199,41.0,93,75,4.61,CA,1612296005
73,erzin,36.9559,36.2,57.0,70,100,13.0,TR,1612296199
74,leh,34.1667,77.5833,7.52,65,99,0.65,IN,1612296200
75,manicore,-5.8092,-61.3003,83.59,88,52,3.76,BR,1612296202
76,tura,25.5198,90.2201,57.33,54,0,2.8,IN,1612296203
77,khao yoi,13.2403,99.8243,73.0,98,23,2.62,TH,1612296204
78,dayong,25.0209,118.2898,59.0,41,75,13.42,CN,1612296205
79,kapaa,22.0752,-159.319,72.0,100,75,5.75,US,1612296131
80,komsomolskoye,55.2567,47.5461,10.04,94,100,3.71,RU,1612296207
81,avera,33.194,-82.5271,51.8,43,75,18.41,US,1612296208
82,east london,-33.0153,27.9116,71.47,76,95,19.64,ZA,1612296209
83,new norfolk,-42.7826,147.0587,57.0,70,99,1.57,AU,1612296211
84,kinkala,-4.3614,14.7644,80.6,78,20,2.3,CG,1612296212
85,mataura,-46.1927,168.8643,61.11,76,100,1.45,NZ,1612296213
86,hilo,19.7297,-155.09,75.2,60,1,4.61,US,1612295919
87,rock sound,24.9,-76.2,63.99,71,0,32.95,BS,1612296215
88,tooele,40.5308,-112.2983,57.2,65,1,5.75,US,1612296211
89,ponta do sol,32.6667,-17.1,61.0,68,71,3.0,PT,1612296217
90,lasa,46.6166,10.7002,35.01,86,0,3.62,IT,1612296218
91,dudinka,69.4058,86.1778,-4.2,92,100,9.24,RU,1612296221
92,merauke,-8.4667,140.3333,77.45,89,99,12.8,ID,1612296070
93,kodiak,57.79,-152.4072,30.2,86,90,15.59,US,1612296223
94,pangai,-19.8,-174.35,82.4,83,75,10.36,TO,1612296224
95,luanda,-8.8368,13.2343,80.6,74,20,5.75,AO,1612296181
96,kailua,21.4022,-157.7394,73.4,78,20,4.61,US,1612296226
97,marsh harbour,26.5412,-77.0636,58.15,70,30,30.56,BS,1612296227
98,maba,24.6841,113.5984,61.57,66,87,2.71,CN,1612296229
99,cherskiy,68.75,161.3,-3.23,84,0,0.98,RU,1612296231
100,mehriz,31.5917,54.4318,44.6,26,0,2.3,IR,1612296142
101,forio,40.7342,13.8646,54.0,82,0,8.25,IT,1612296233
102,hasaki,35.7333,140.8333,26.6,86,20,2.3,JP,1612296234
103,dikson,73.5069,80.5464,-22.09,82,0,12.59,RU,1612296236
104,smithers,54.7804,-127.1743,26.6,86,90,2.3,CA,1612296005
105,cedar lake,41.3648,-87.4411,32.0,59,90,10.36,US,1612296238
106,carnarvon,-24.8667,113.6333,73.4,100,97,24.16,AU,1612296240
107,albany,42.6001,-73.9662,30.0,88,100,1.99,US,1612296015
108,tucuman,-26.8241,-65.2226,68.0,94,90,6.91,AR,1612295987
109,komsomolskiy,40.4272,71.7189,37.4,65,33,4.61,UZ,1612296244
110,umm lajj,25.0213,37.2685,74.62,76,0,4.12,SA,1612296014
111,esperance,-33.8667,121.9,69.8,40,75,16.11,AU,1612296246
112,jamestown,42.097,-79.2353,24.01,86,90,14.97,US,1612296063
113,bismil,37.8486,40.6658,39.2,100,0,4.61,TR,1612296192
114,yar-sale,66.8333,70.8333,5.04,94,99,7.23,RU,1612296250
115,amga,60.8953,131.9608,-38.9,79,100,4.41,RU,1612296251
116,gorele,41.0308,39.0031,53.6,66,0,2.3,TR,1612296252
117,cap malheureux,-19.9842,57.6142,78.01,83,13,3.0,MU,1612296253
118,kahului,20.8947,-156.47,77.0,61,20,2.15,US,1612296254
119,northam,51.0333,-4.2167,48.99,91,97,15.01,GB,1612296255
120,caravelas,-17.7125,-39.2481,81.09,71,98,9.42,BR,1612296257
121,sambava,-14.2667,50.1667,79.66,79,67,12.46,MG,1612296259
122,aykhal,66.0,111.5,-30.77,82,100,10.25,RU,1612296260
123,ambam,2.3833,11.2833,71.98,93,100,2.89,CM,1612296261
124,thompson,55.7435,-97.8558,15.8,92,90,4.61,CA,1612296240
125,pierre,44.3683,-100.351,30.2,86,90,5.75,US,1612296263
126,bangolo,7.0069,-7.475,85.03,42,81,3.51,CI,1612296264
127,manoel urbano,-8.8389,-69.2597,89.02,57,25,2.95,BR,1612296265
128,bukachacha,52.9833,116.9167,-27.15,78,0,3.38,RU,1612296266
129,yulara,-25.2406,130.9889,77.0,33,25,6.91,AU,1612296072
130,auki,-8.7676,160.7034,78.12,86,87,6.71,SB,1612296269
131,georgetown,5.4112,100.3354,80.6,89,20,4.61,MY,1612296016
132,rawson,-43.3002,-65.1023,80.4,26,0,12.12,AR,1612296163
133,taoudenni,22.6783,-3.9836,74.97,19,100,10.96,ML,1612296272
134,bud,39.447,-86.1758,30.99,76,98,14.07,US,1612296273
135,padang,-0.9492,100.3543,75.2,100,40,2.3,ID,1612296274
136,maragogi,-9.0122,-35.2225,80.76,72,6,12.15,BR,1612296275
137,katsuura,35.1333,140.3,42.8,45,0,5.75,JP,1612295926
138,vardo,70.3705,31.1107,24.8,93,90,24.16,NO,1612295823
139,hithadhoo,-0.6,73.0833,82.06,73,44,4.65,MV,1612296282
140,praia da vitoria,38.7333,-27.0667,53.6,66,20,27.58,PT,1612296284
141,raga,8.4596,25.678,79.65,30,17,4.03,SS,1612296285
142,haines junction,60.7522,-137.5108,-20.2,76,96,1.5,CA,1612296286
143,castro,-24.7911,-50.0119,76.71,79,9,1.63,BR,1612296287
144,gunjur,13.2019,-16.7339,80.6,41,0,6.91,GM,1612296289
145,tautira,-17.7333,-149.15,86.0,66,20,5.75,PF,1612296290
146,beringovskiy,63.05,179.3167,8.35,95,100,7.07,RU,1612296291
147,bantogon,6.5333,124.0333,76.77,78,100,5.01,PH,1612296292
148,dongkan,33.9997,119.8308,32.63,93,0,7.72,CN,1612296293
149,kruisfontein,-34.0033,24.7314,69.01,81,0,1.01,ZA,1612296294
150,avarua,-21.2078,-159.775,84.2,74,40,9.22,CK,1612296085
151,port blair,11.6667,92.75,76.46,78,0,11.34,IN,1612296296
152,alekseyevsk,57.8406,108.3492,-32.04,81,38,4.5,RU,1612296297
153,torbat-e jam,35.244,60.6225,42.31,66,6,1.14,IR,1612296299
154,velykoploske,47.0125,29.6717,33.8,100,90,5.75,UA,1612296300
155,bolbec,49.5732,0.4734,53.6,76,0,14.97,FR,1612296301
156,waipawa,-41.4122,175.5153,64.0,77,1,9.22,NZ,1612296303
157,mandalgovi,45.7625,106.2708,0.5,80,0,9.13,MN,1612296304
158,sitka,57.0531,-135.33,35.6,64,20,4.61,US,1612296305
159,dakar,14.6937,-17.4441,69.8,78,0,9.22,SN,1612296231
160,scottsbluff,41.8666,-103.6672,64.4,17,1,23.02,US,1612296308
161,crown point,41.417,-87.3653,32.0,59,90,10.36,US,1612296247
162,champerico,14.3,-91.9167,93.2,43,20,6.91,GT,1612296310
163,usolye-sibirskoye,52.7519,103.6453,-6.95,90,100,3.31,RU,1612296311
164,hobart,-42.8794,147.3294,57.0,76,75,5.75,AU,1612296078
165,sabinas hidalgo,26.5,-100.1667,70.32,30,5,8.86,MX,1612296313
166,karratha,-20.7377,116.8463,80.83,84,99,18.23,AU,1612296314
167,constitucion,-35.3333,-72.4167,66.69,65,14,5.84,CL,1612296317
168,tibiri,13.5627,7.0485,76.73,16,5,9.86,NE,1612296318
169,airai,-8.9266,125.4092,61.83,100,100,2.3,TL,1612296319
170,nishihara,26.1842,127.7558,60.8,54,20,8.05,JP,1612296320
171,sao jose da coroa grande,-8.8978,-35.1478,80.64,71,3,11.07,BR,1612296321
172,vostok,46.4856,135.8833,-27.94,86,100,6.29,RU,1612296322
173,yelizovo,53.1873,158.3805,15.8,79,90,11.18,RU,1612296323
174,chuy,-33.6971,-53.4616,80.56,66,92,6.42,UY,1612296324
175,half moon bay,37.4636,-122.4286,59.0,88,75,8.05,US,1612296127
176,souillac,-20.5167,57.5167,80.6,78,40,11.5,MU,1612296327
177,sao joao da barra,-21.6403,-41.0511,84.2,54,0,20.71,BR,1612296106
178,tayshet,55.9342,98.0044,0.5,91,100,2.3,RU,1612296329
179,vestmanna,62.1564,-7.1664,37.4,70,20,14.97,FO,1612296330
180,sinnamary,5.3833,-52.95,79.05,84,73,15.79,GF,1612296331
181,vidim,56.4088,103.1106,-9.94,89,100,5.1,RU,1612296332
182,aksu,41.1231,80.2644,23.31,81,0,2.13,CN,1612296333
183,kuchaman,27.15,74.85,59.83,33,0,2.48,IN,1612296336
184,broken hill,-31.95,141.4333,57.2,47,0,6.91,AU,1612296337
185,aleksandrov gay,50.147,48.5704,35.31,94,100,10.11,RU,1612296338
186,hermanus,-34.4187,19.2345,66.0,86,0,7.07,ZA,1612296339
187,novikovo,51.1537,37.8879,28.26,98,100,5.28,RU,1612296341
188,tual,-5.6667,132.75,83.25,76,100,21.0,ID,1612296342
189,toora-khem,52.4675,96.11,-7.24,88,72,1.25,RU,1612296345
190,tabuk,17.4189,121.4443,68.0,89,100,5.86,PH,1612296302
191,chara,56.9064,118.2631,-30.86,67,5,2.44,RU,1612296347
192,pacific grove,36.6177,-121.9166,55.0,94,90,3.44,US,1612296348
193,najran,17.4924,44.1277,64.4,36,0,0.74,SA,1612296349
194,teguldet,57.3064,88.1667,11.57,95,100,8.14,RU,1612296350
195,nanortalik,60.1432,-45.2371,16.79,86,0,16.15,GL,1612296351
196,reforma,18.1,-91.0167,71.6,65,74,6.89,MX,1612296353
197,sola,-13.8833,167.55,81.48,80,100,23.76,VU,1612296354
198,coihaique,-45.5752,-72.0662,78.8,41,0,6.91,CL,1612296208
199,keuruu,62.2667,24.7,5.0,85,90,3.44,FI,1612296356
200,micheweni,-4.9667,39.8333,80.65,76,100,9.55,TZ,1612296357
201,chulym,55.0997,80.9572,7.25,95,100,9.17,RU,1612296358
202,rodez,44.5,2.5833,53.01,93,0,4.61,FR,1612296156
203,yellowknife,62.456,-114.3525,-11.0,70,90,11.5,CA,1612296087
204,mayumba,-3.432,10.6554,79.21,80,91,7.47,GA,1612296361
205,mudhol,16.35,75.2833,70.95,33,0,8.95,IN,1612296364
206,hofn,64.2539,-15.2082,32.4,92,100,15.28,IS,1612296068
207,lopukhiv,48.3653,23.9638,34.84,88,100,5.79,UA,1612296366
208,jalu,29.0331,21.5482,56.21,48,10,4.9,LY,1612296367
209,hoquiam,46.9809,-123.8893,44.01,87,90,10.36,US,1612296131
210,mareeba,-17.0,145.4333,73.4,94,45,1.36,AU,1612296369
211,cabo san lucas,22.8909,-109.9124,78.8,47,20,8.05,MX,1612296350
212,conde,-7.2597,-34.9075,82.4,69,40,13.8,BR,1612296372
213,geraldton,-28.7667,114.6,73.4,83,75,13.8,AU,1612296373
214,kanye,-24.9667,25.3327,62.47,95,100,11.45,BW,1612296374
215,saint-pierre,-21.3393,55.4781,80.6,78,0,2.3,RE,1612296375
216,gueugnon,46.6036,4.0629,55.4,82,90,2.3,FR,1612296376
217,noumea,-22.2763,166.4572,75.99,94,75,20.71,NC,1612296181
218,ocos,14.5094,-92.1933,93.2,55,1,5.75,GT,1612296379
219,wanaka,-44.7,169.15,59.0,72,68,1.01,NZ,1612296201
220,hami,42.8,93.45,26.83,78,100,4.34,CN,1612296381
221,tasiilaq,65.6145,-37.6368,19.4,93,90,4.61,GL,1612296382
222,arraial do cabo,-22.9661,-42.0278,86.0,61,0,26.46,BR,1612296383
223,saskylakh,71.9167,114.0833,-9.17,89,100,18.59,RU,1612296384
224,kaitangata,-46.2817,169.8464,64.0,89,100,3.8,NZ,1612296368
225,lavrentiya,65.5833,-171.0,4.95,90,100,20.09,RU,1612296387
226,rehti,22.7333,77.4333,61.84,30,0,2.37,IN,1612296389
227,grindavik,63.8424,-22.4338,35.6,60,0,23.02,IS,1612296390
228,bredy,52.4153,60.3411,34.59,91,100,18.79,RU,1612296391
229,buraydah,26.326,43.975,66.2,45,0,9.22,SA,1612296393
230,aracati,-4.5617,-37.7697,83.59,63,10,12.8,BR,1612296394
231,yatou,37.15,122.3833,25.34,80,0,4.23,CN,1612296395
232,valdivia,-39.8142,-73.2459,80.6,41,0,5.75,CL,1612296133
233,saldanha,-33.0117,17.9442,69.8,60,0,11.5,ZA,1612296398
234,warrington,53.3925,-2.5802,46.4,100,40,9.22,GB,1612296399
235,tazovskiy,67.4667,78.7,-2.69,92,97,13.0,RU,1612296389
236,severnyy,50.677,36.5532,30.2,100,90,1.74,RU,1612296401
237,marienburg,54.0359,19.0266,30.0,90,100,5.1,PL,1612296402
238,puerto madryn,-42.7692,-65.0385,84.65,22,0,20.58,AR,1612296403
239,axim,4.8699,-2.2405,80.01,84,8,7.76,GH,1612296404
240,fukue,32.6881,128.8419,43.59,68,100,20.56,JP,1612296405
241,bodden town,19.2833,-81.25,78.8,50,40,10.36,KY,1612296190
242,kununurra,-15.7667,128.7333,77.0,100,40,8.05,AU,1612296408
243,butaritari,3.0707,172.7902,81.97,82,94,19.66,KI,1612296409
244,bambous virieux,-20.3428,57.7575,80.6,78,40,11.5,MU,1612296410
245,alofi,-19.0595,-169.9187,82.4,83,75,12.66,NU,1612296411
246,nome,64.5011,-165.4064,12.2,62,40,24.16,US,1612296412
247,orocue,4.7912,-71.3354,94.14,35,88,10.31,CO,1612296413
248,wuwei,37.9281,102.6414,24.1,59,37,0.96,CN,1612296414
249,sistranda,63.7256,8.834,17.6,79,40,14.97,NO,1612296416
250,the valley,18.217,-63.0578,84.2,57,20,14.97,AI,1612296417
251,tagusao,9.1924,117.8141,78.8,84,100,12.84,PH,1612296418
252,los llanos de aridane,28.6585,-17.9182,66.2,72,90,10.36,ES,1612296386
253,san patricio,28.017,-97.5169,71.6,40,20,9.22,US,1612296420
254,marbella,36.5154,-4.8858,64.4,68,0,13.8,ES,1612296180
255,provideniya,64.3833,-173.3,7.63,91,100,15.52,RU,1612296402
256,fairhope,30.523,-87.9033,55.4,43,1,6.91,US,1612296147
257,ucluelet,48.9329,-125.5528,46.99,87,90,10.36,CA,1612296131
258,manaquiri,-3.3167,-60.35,77.0,88,75,2.3,BR,1612296426
259,zhicheng,30.2956,111.5047,43.0,74,0,2.19,CN,1612296427
260,domat,46.8348,9.4508,41.0,71,48,1.01,CH,1612296428
261,tarrafal,15.2833,-23.7667,73.4,60,0,16.11,CV,1612296429
262,alice springs,-23.7,133.8833,73.99,40,16,3.44,AU,1612296430
263,bonthe,7.5264,-12.505,80.53,77,0,8.41,SL,1612296431
264,oskemen,49.9565,82.6119,24.8,86,75,4.47,KZ,1612296432
265,claremore,36.3126,-95.6161,55.99,30,1,4.61,US,1612296433
266,veraval,20.9,70.3667,71.96,48,0,11.16,IN,1612296236
267,aloleng,16.1307,119.7824,75.02,76,0,8.63,PH,1612296436
268,ponta delgada,37.7333,-25.6667,51.8,76,75,25.32,PT,1612296437
269,khani,41.9563,42.9566,41.0,70,0,3.44,GE,1612296438
270,bandar,2.05,99.75,72.14,92,100,2.08,ID,1612296441
271,egvekinot,66.3167,-179.1667,-2.09,94,100,12.37,RU,1612296367
272,iwanai,42.9744,140.5089,12.13,92,100,21.77,JP,1612296443
273,kavieng,-2.5744,150.7967,81.36,78,100,12.06,PG,1612296445
274,springdale,36.1867,-94.1288,55.0,30,1,3.44,US,1612296446
275,umba,66.6871,34.3429,10.35,94,94,6.11,RU,1612296447
276,moron,-34.6534,-58.6198,79.0,60,92,4.0,AR,1612296448
277,palmer,42.1584,-72.3287,34.0,86,100,1.01,US,1612296449
278,sept-iles,50.2001,-66.3821,28.4,63,100,5.75,CA,1612296311
279,sakakah,29.9697,40.2064,64.4,29,0,14.97,SA,1612296451
280,sal rei,16.1833,-22.9167,71.6,78,75,16.11,CV,1612296311
281,cairns,-16.9167,145.7667,73.4,94,49,3.18,AU,1612296453
282,dalnerechensk,45.9339,133.7225,-24.41,83,42,8.08,RU,1612296455
283,jacareacanga,-6.2222,-57.7528,89.6,66,40,2.3,BR,1612296456
284,alta floresta,-9.8756,-56.0861,85.1,76,100,4.45,BR,1612296457
285,zhangye,38.9342,100.4517,22.23,64,71,2.73,CN,1612296458
286,roma,43.2128,-75.4557,30.0,80,90,11.5,US,1612296459
287,shestakovo,56.4915,103.96,-12.39,87,100,3.94,RU,1612296460
288,okhotsk,59.3833,143.3,-21.59,85,100,12.17,RU,1612296461
289,luoyang,34.6836,112.4536,41.0,99,0,3.56,CN,1612296462
290,mizdah,31.4451,12.9801,54.14,53,0,8.9,LY,1612296464
291,richards bay,-28.783,32.0377,70.2,76,100,4.52,ZA,1612296374
292,cortez,37.3489,-108.5859,51.8,40,90,5.75,US,1612296467
293,luderitz,-26.6481,15.1594,65.59,84,0,12.3,NA,1612296388
294,vila franca do campo,37.7167,-25.4333,51.8,76,75,25.32,PT,1612296469
295,mairana,-18.1167,-63.9333,70.88,72,80,7.96,BO,1612296470
296,bay saint louis,30.3088,-89.33,55.99,40,1,9.22,US,1612296471
297,savalou,7.9281,1.9756,88.9,40,18,8.97,BJ,1612296372
298,severo-kurilsk,50.6789,156.125,25.61,95,31,39.41,RU,1612296474
299,canmore,51.0834,-115.3521,41.0,36,5,8.05,CA,1612296392
300,sorland,67.667,12.6934,28.4,69,75,13.8,NO,1612296476
301,bentiu,9.2333,29.8333,81.48,24,0,3.67,SS,1612296477
302,urucara,-2.5364,-57.76,83.57,84,99,1.95,BR,1612296478
303,ust-nera,64.5667,143.2,-26.41,76,100,5.35,RU,1612296423
304,lovozero,68.005,35.0117,14.04,95,99,10.56,RU,1612296480
305,vestmannaeyjar,63.4427,-20.2734,35.6,75,20,32.21,IS,1612296481
306,pori,61.4833,21.7833,8.6,85,75,3.44,FI,1612296482
307,saint-francois,46.4154,3.9054,55.4,82,90,2.3,FR,1612296484
308,rosetta,31.4044,30.4164,63.57,68,100,9.46,EG,1612296485
309,salihorsk,52.7876,27.5415,22.14,97,99,10.0,BY,1612296486
310,phuket,8.0,98.25,77.0,88,20,2.3,TH,1612296487
311,vila do maio,15.1333,-23.2167,73.4,60,0,16.11,CV,1612296488
312,ostrovnoy,68.0531,39.5131,25.39,94,100,19.3,RU,1612296489
313,bathsheba,13.2167,-59.5167,82.4,57,40,19.57,BB,1612296490
314,saint-augustin,51.226,-58.6502,19.47,90,100,8.97,CA,1612296368
315,kamareddi,18.3167,78.35,63.66,27,5,3.67,IN,1612296492
316,hualmay,-11.0964,-77.6139,75.88,64,34,11.25,PE,1612296494
317,hue,16.4667,107.6,68.0,94,75,1.14,VN,1612296429
318,mumford,5.2618,-0.759,80.65,84,13,10.89,GH,1612296496
319,stokmarknes,68.5646,14.9108,26.6,54,0,9.22,NO,1612296497
320,praya,14.9215,-23.5087,73.4,60,0,16.11,CV,1612296498
321,valguarnera caropepe,37.4955,14.3888,53.6,100,0,2.3,IT,1612296500
322,tyrma,50.0833,132.1667,-35.05,80,87,3.09,RU,1612296501
323,broome,42.2506,-75.833,28.0,80,90,16.11,US,1612296503
324,berezovyy,51.6667,135.7,-28.62,78,85,3.04,RU,1612296504
325,khatassy,61.9036,129.6383,-38.2,60,100,8.95,RU,1612296505
326,kondinskoye,59.6481,67.41,17.13,98,100,1.97,RU,1612296506
327,songea,-10.6833,35.65,65.37,93,6,2.62,TZ,1612296507
328,sterling,39.0062,-77.4286,36.0,64,90,20.71,US,1612296444
329,nara,34.6851,135.8049,37.99,46,6,1.99,JP,1612296509
330,marystown,47.1666,-55.1483,29.3,93,100,15.88,CA,1612296510
331,zhigansk,66.7697,123.3711,-31.72,85,100,11.03,RU,1612296511
332,binga,-17.6203,27.3414,74.98,86,100,3.29,ZW,1612296513
333,lompoc,34.6391,-120.4579,63.0,72,1,11.5,US,1612296514
334,provost,52.3501,-110.2683,12.2,92,99,11.5,CA,1612296515
335,saint-joseph,-21.3667,55.6167,80.6,78,0,2.3,RE,1612296516
336,norman wells,65.282,-126.8329,-18.4,76,90,16.11,CA,1612296415
337,swinoujscie,53.9105,14.2471,33.01,91,98,3.06,PL,1612296518
338,saint anthony,45.0205,-93.218,25.0,80,90,8.05,US,1612296385
339,innisfail,-17.5333,146.0333,72.61,84,81,3.2,AU,1612296520
340,jiwani,25.05,61.7417,69.89,73,0,11.97,PK,1612296522
341,erdenet,49.0333,104.0833,-2.76,84,11,3.91,MN,1612296523
342,rabo de peixe,37.8,-25.5833,51.8,76,75,25.32,PT,1612296525
343,isangel,-19.55,169.2667,80.6,89,75,11.5,VU,1612296526
344,husavik,66.0449,-17.3389,8.6,78,0,6.91,IS,1612296371
345,longyearbyen,78.2186,15.6401,19.4,93,90,9.22,SJ,1612296528
346,meaford,44.6001,-80.583,28.99,76,96,5.01,CA,1612296349
347,clyde river,70.4692,-68.5914,-29.2,68,40,5.75,CA,1612296530
348,groningen,53.25,6.75,33.01,100,90,9.22,NL,1612296531
349,kremenchuk,49.0973,33.4197,31.57,98,92,3.53,UA,1612296534
350,namatanai,-3.6667,152.4333,76.78,90,100,16.8,PG,1612296535
351,cortes,41.9395,-1.4396,59.0,62,100,9.22,ES,1612296536
352,torbay,47.6666,-52.7314,28.99,74,90,8.05,CA,1612296316
353,kerema,-7.9631,145.7785,75.78,90,100,4.72,PG,1612296538
354,korla,41.7597,86.1469,24.66,82,4,1.5,CN,1612296539
355,luorong,24.4058,109.6086,60.24,69,67,5.66,CN,1612296540
356,ryotsu,38.0833,138.4333,32.49,95,81,14.94,JP,1612296542
357,mecca,21.4267,39.8261,74.73,75,0,0.96,SA,1612296543
358,kagadi,0.9606,30.7967,72.14,39,42,4.27,UG,1612296544
359,mount gambier,-37.8333,140.7667,57.2,77,90,8.05,AU,1612296451
360,tamandare,-8.7597,-35.1047,80.6,71,3,10.49,BR,1612296546
361,kavaratti,10.5669,72.642,81.27,70,0,3.96,IN,1612296547
362,goundam,16.4145,-3.6708,74.52,17,28,8.39,ML,1612296548
363,bandarbeyla,9.4942,50.8122,73.62,69,17,17.56,SO,1612296512
364,havre-saint-pierre,50.2334,-63.5986,24.8,46,20,8.05,CA,1612296550
365,boa vista,2.8197,-60.6733,89.6,45,75,11.5,BR,1612296552
366,dicabisagan,17.0818,122.4157,72.84,84,94,10.74,PH,1612296553
367,senj,44.9894,14.9058,48.99,81,90,3.44,HR,1612296555
368,shambu,9.5667,37.1,58.05,36,46,0.38,ET,1612296557
369,vaitape,-16.5167,-151.75,81.36,74,9,14.54,PF,1612296536
370,malatya,38.5,38.0,33.8,93,75,5.75,TR,1612296559
371,terrace,54.5163,-128.6035,30.2,86,75,10.36,CA,1612296561
372,sena madureira,-9.0656,-68.6569,91.29,51,20,2.82,BR,1612296562
373,itacare,-14.2775,-38.9967,82.4,78,20,4.61,BR,1612296563
374,vuktyl,63.8567,57.3094,14.16,96,100,8.3,RU,1612296564
375,cururupu,-1.8283,-44.8683,84.43,63,16,7.49,BR,1612296428
376,cape canaveral,28.4058,-80.6048,55.4,35,1,18.41,US,1612296566
377,westport,41.1415,-73.3579,35.6,75,90,14.97,US,1612296567
378,dossor,47.5272,52.9811,37.69,80,100,11.86,KZ,1612296568
379,koslan,63.4564,48.8989,13.12,96,77,7.16,RU,1612296569
380,zyryanka,65.75,150.85,-21.14,87,100,4.72,RU,1612296571
381,carahue,-38.7,-73.1667,86.0,35,0,9.22,CL,1612296572
382,ust-maya,60.4167,134.5333,-40.67,80,100,0.11,RU,1612296573
383,kaohsiung,22.6163,120.3133,64.0,77,40,3.44,TW,1612296574
384,mayo,38.8876,-76.5119,36.0,80,90,9.22,US,1612296407
385,zhoucheng,35.9122,116.3117,32.43,90,0,7.61,CN,1612296576
386,katangli,51.7102,143.2326,-24.05,80,100,11.34,RU,1612296580
387,matara,5.9485,80.5353,74.59,86,22,9.93,LK,1612296373
388,linjiang,41.8069,126.9078,-5.84,86,51,3.71,CN,1612296582
389,cartagena,10.3997,-75.5144,84.2,74,40,17.27,CO,1612296583
390,wasilla,61.5814,-149.4394,12.0,37,1,16.11,US,1612296581
391,saint-jean-de-maurienne,45.1667,6.5833,48.99,90,81,3.0,FR,1612296585
392,emerald,-23.5333,148.1667,77.0,73,47,9.22,AU,1612296403
393,weligama,5.9667,80.4167,74.12,88,43,8.05,LK,1612296587
394,waddan,29.1614,16.139,48.99,91,17,4.36,LY,1612296588
395,san rafael,-34.6177,-68.3301,72.12,33,25,4.12,AR,1612296590
396,bystryy istok,52.371,84.3873,17.11,96,68,4.52,RU,1612296591
397,kafanchan,9.5833,8.3,75.49,24,0,3.51,NG,1612296592
398,kawalu,-7.3817,108.2082,72.41,89,91,2.8,ID,1612296593
399,bonavista,48.6499,-53.1147,28.0,86,83,2.3,CA,1612296596
400,balakirevo,56.5059,38.8432,14.61,97,92,6.04,RU,1612296597
401,saint-georges,12.0564,-61.7485,82.4,69,20,23.02,GD,1612296598
402,san jose,37.3394,-121.895,60.01,77,90,4.61,US,1612296411
403,plettenberg bay,-34.0527,23.3716,69.98,69,0,3.27,ZA,1612296601
404,melfi,40.9965,15.6514,42.8,93,0,5.75,IT,1612296606
405,alto araguaia,-17.3147,-53.2153,84.67,62,99,5.35,BR,1612296607
406,sao filipe,14.8961,-24.4956,73.15,73,1,10.87,CV,1612296608
407,chapais,49.7834,-74.8492,26.6,59,1,9.22,CA,1612296385
408,san policarpo,12.1791,125.5072,79.81,81,99,13.4,PH,1612296420
409,kalinin,47.2468,39.5109,46.99,93,99,4.0,RU,1612296611
410,preston,53.7667,-2.7167,41.0,93,75,13.8,GB,1612296422
411,lima,-12.0432,-77.0282,77.0,57,0,8.05,PE,1612296348
412,nyurba,63.2842,118.3319,-36.78,81,100,8.23,RU,1612296614
413,ayan,56.45,138.1667,-26.41,70,100,13.18,RU,1612296616
414,dotnuva,55.35,23.9,28.4,86,90,9.22,LT,1612296618
415,narsaq,60.9167,-46.05,24.8,63,75,5.75,GL,1612296619
416,gat,31.61,34.7642,66.0,57,29,5.99,IL,1612296620
417,dzhebariki-khaya,62.2167,135.8,-45.74,76,100,2.21,RU,1612296621
418,ugoofaaru,5.6667,73.0,82.08,72,31,11.23,MV,1612296622
419,laksham,23.2472,91.1425,57.0,49,0,4.43,BD,1612296625
420,arrecife,28.963,-13.5477,64.4,82,20,8.05,ES,1612296626
421,pevek,69.7008,170.3133,9.57,91,100,10.74,RU,1612296627
422,neiafu,-18.65,-173.9833,78.8,100,75,6.91,TO,1612296628
423,yabelo,4.8833,38.0833,63.59,36,4,16.49,ET,1612296430
424,ust-omchug,61.15,149.6333,-37.44,75,41,5.97,RU,1612296630
425,callaguip,18.0714,120.4867,73.67,75,0,11.61,PH,1612296631
426,tshane,-24.0196,21.8684,72.28,78,86,13.4,BW,1612296632
427,bontang,0.1333,117.5,77.79,87,100,6.85,ID,1612296633
428,bima,-8.4667,118.7167,76.73,87,53,1.5,ID,1612296635
429,savannah bight,16.45,-85.85,75.2,69,75,13.8,HN,1612296636
430,anjozorobe,-18.4,47.8667,66.2,88,20,8.05,MG,1612296637
431,la ronge,55.1001,-105.2842,17.6,93,90,10.36,CA,1612296638
432,kropotkin,45.4375,40.5756,47.7,61,21,6.51,RU,1612296639
433,honiara,-9.4333,159.95,78.76,83,78,7.27,SB,1612296397
434,morgan city,29.6994,-91.2068,55.99,41,1,6.91,US,1612296641
435,loiza,18.4313,-65.8802,87.8,48,40,10.36,PR,1612296642
436,abu kamal,34.4506,40.9171,54.41,54,0,6.02,SY,1612296643
437,nuuk,64.1835,-51.7216,8.6,56,75,11.5,GL,1612296645
438,tangshan,39.6333,118.1833,20.41,82,44,6.71,CN,1612296646
439,emba,48.8264,58.1442,33.51,97,100,14.45,KZ,1612296647
440,kahuta,33.5913,73.3868,53.01,63,100,1.01,PK,1612296648
441,ati,13.2154,18.3353,77.95,16,0,10.02,TD,1612296649
442,ilulissat,69.2167,-51.1,-4.0,77,40,18.41,GL,1612296650
443,soyo,-6.1349,12.3689,79.84,80,100,8.5,AO,1612296651
444,marquette,46.5333,-87.6335,28.0,65,32,8.01,US,1612296636
445,guerrero negro,27.9769,-114.0611,76.21,25,100,1.34,MX,1612296393
446,porto belo,-27.1578,-48.5531,86.0,74,40,9.22,BR,1612296655
447,lata,40.1629,-8.3327,57.99,96,100,11.99,PT,1612296656
448,salalah,17.0151,54.0924,69.8,64,0,3.44,OM,1612296657
449,cayenne,4.9333,-52.3333,80.6,94,75,11.5,GF,1612296658
450,el sauzal,31.9,-116.6833,61.0,88,100,4.0,MX,1612296415
451,pontianak,-0.0333,109.3333,75.2,100,75,3.44,ID,1612296660
452,pavlodar,52.3,76.95,8.6,85,0,6.71,KZ,1612296661
453,hubli,15.35,75.1667,70.3,35,0,8.84,IN,1612296662
454,montepuez,-13.1256,38.9997,71.46,90,17,2.73,MZ,1612296664
455,ust-kuyga,70.0167,135.6,-26.18,84,100,6.87,RU,1612296665
456,porbandar,21.6422,69.6093,68.52,55,26,7.14,IN,1612296666
457,kotelnich,58.3089,48.348,10.69,96,100,6.4,RU,1612296667
458,eureka,40.8021,-124.1637,53.01,70,64,3.0,US,1612296608
459,xining,36.6167,101.7667,19.22,61,97,2.89,CN,1612296669
460,kuytun,54.3419,101.5036,-5.78,91,100,4.54,RU,1612296670
461,oum hadjer,13.2954,19.6966,78.87,16,0,11.21,TD,1612296672
462,codrington,-38.2667,141.9667,58.28,77,88,7.45,AU,1612296674
463,asau,46.4333,26.4,33.01,75,1,5.12,RO,1612296675
464,union city,37.5958,-122.0192,59.0,82,90,5.75,US,1612296469
465,burley,42.5357,-113.7928,53.6,37,1,23.02,US,1612296677
466,bilma,18.6853,12.9164,66.49,25,0,7.25,NE,1612296678
467,kinsale,51.7075,-8.5306,46.0,93,40,12.66,IE,1612296679
468,nalut,30.3333,10.85,54.37,43,0,9.73,LY,1612296680
469,pimenta bueno,-11.6725,-61.1936,86.97,66,92,2.98,BR,1612296681
470,bystrice,49.6366,18.7204,36.0,87,100,5.99,CZ,1612296683
471,atherton,53.5237,-2.4935,46.0,90,100,1.99,GB,1612296684
472,knokke-heist,51.3333,3.3333,48.99,93,90,14.97,BE,1612296685
473,omsukchan,62.5333,155.8,-29.47,82,100,6.08,RU,1612296686
474,alamos,27.0167,-108.9333,78.01,56,100,1.01,MX,1612296688
475,adet,11.2644,37.4888,63.81,39,75,7.45,ET,1612296689
476,lerwick,60.1545,-1.1494,37.4,70,90,19.57,GB,1612296690
477,uyuni,-20.4597,-66.825,64.53,34,73,5.44,BO,1612296693
478,ambon,-3.6954,128.1814,80.15,81,100,9.55,ID,1612296694
479,mangai,-4.05,19.5333,73.04,91,89,0.38,CD,1612296695
480,wanlaweyn,2.6185,44.8938,73.02,70,6,17.6,SO,1612296696
481,huancabamba,-5.2386,-79.4506,68.13,72,65,3.36,PE,1612296697
482,shelburne,44.0787,-80.2041,28.4,74,20,9.22,CA,1612296698
483,trento,46.0679,11.1211,41.0,69,0,13.8,IT,1612296699
484,voi,-3.3945,38.563,74.75,68,93,4.45,KE,1612296701
485,palpa,-14.5336,-75.1856,89.1,31,83,13.06,PE,1612296702
486,darhan,49.4867,105.9228,-3.73,85,99,5.53,MN,1612296703
487,vila velha,-20.3297,-40.2925,82.4,69,20,14.97,BR,1612296704
488,rocha,-34.4833,-54.3333,78.28,69,78,10.27,UY,1612296428
489,porto novo,6.4965,2.6036,84.2,89,20,8.05,BJ,1612296706
490,cuiluan,47.72,128.648,-22.86,84,54,5.75,CN,1612296707
491,pirapozinho,-22.2753,-51.5,83.98,71,88,5.66,BR,1612296708
492,varnamo,57.186,14.04,26.6,93,90,5.75,SE,1612296710
493,dunedin,-45.8742,170.5036,62.01,89,50,4.79,NZ,1612296502
494,lhokseumawe,5.1801,97.1507,76.96,84,100,3.89,ID,1612296510
495,tramore,52.1624,-7.1524,48.0,87,75,6.91,IE,1612296713
496,oistins,13.0667,-59.5333,82.4,57,40,19.57,BB,1612296479
497,mercedes,-34.6515,-59.4307,75.0,71,100,8.01,AR,1612296715
498,namibe,-15.1961,12.1522,73.8,74,64,6.2,AO,1612296716
499,skibbereen,51.55,-9.2667,44.6,93,40,12.66,IE,1612296717
500,oranjemund,-28.55,16.4333,65.93,83,0,4.76,NA,1612296718
501,kalemie,-5.9475,29.1947,71.44,81,32,0.6,CD,1612296720
502,altay,47.8667,88.1167,14.56,79,98,1.41,CN,1612296721
503,jalingo,8.8833,11.3667,83.44,17,0,3.62,NG,1612296722
504,brigg,53.552,-0.4921,43.0,100,90,9.22,GB,1612296723
505,laem sing,12.4816,102.0738,73.99,91,0,2.48,TH,1612296724
506,ahipara,-35.1667,173.1667,65.5,73,0,2.13,NZ,1612296725
507,bressanone,46.715,11.656,35.01,100,20,2.3,IT,1612296726
508,clonakilty,51.6231,-8.8706,46.0,93,40,12.66,IE,1612296727
509,ilinskoye-khovanskoye,56.9718,39.7684,17.6,86,0,2.24,RU,1612296729
510,beaverlodge,55.2166,-119.4361,-4.0,77,90,17.27,CA,1612296730
511,key biscayne,25.6937,-80.1628,66.99,36,20,14.97,US,1612296732
512,moose factory,51.2585,-80.6094,8.6,92,75,3.44,CA,1612296733
513,portland,45.5234,-122.6762,48.99,66,75,11.5,US,1612296003
514,margate,51.3813,1.3862,51.01,83,17,5.01,GB,1612296736
515,coroneo,20.1333,-100.3333,73.4,25,40,9.22,MX,1612296737
516,fenoarivo,-18.933,47.4354,66.2,88,20,8.05,MG,1612296738
517,conceicao do araguaia,-8.2578,-49.2647,86.02,68,96,4.63,BR,1612296739
518,manzanillo,20.3433,-77.1167,79.09,38,0,6.4,CU,1612296741
519,sioux city,42.5,-96.4003,24.8,86,90,12.66,US,1612296628
520,plainview,40.7765,-73.4673,36.0,86,90,14.97,US,1612296743
521,dryden,49.7833,-92.7503,21.2,86,90,12.66,CA,1612296745
522,ingham,42.6,-84.3833,30.99,51,1,12.66,US,1612296746
523,trairi,-3.2778,-39.2689,82.36,66,0,13.58,BR,1612296729
524,mzimba,-11.9,33.6,64.0,89,16,5.55,MW,1612296748
525,vao,-22.6667,167.4833,77.49,87,100,43.22,NC,1612296749
526,kamenka,51.3223,42.7678,32.0,96,100,5.48,RU,1612296750
527,hamilton,39.1834,-84.5333,34.0,51,1,20.71,US,1612296751
528,chipinge,-20.1883,32.6236,66.16,100,98,3.36,ZW,1612296753
529,muscatine,41.4667,-91.1335,23.0,93,79,4.61,US,1612296754
530,grajau,-5.8194,-46.1386,81.05,86,34,5.35,BR,1612296755
531,ibotirama,-12.1853,-43.2206,88.29,46,99,1.61,BR,1612296756
532,nemuro,43.3236,145.575,14.58,84,28,24.96,JP,1612296757
533,aqtobe,50.2797,57.2072,35.6,87,100,8.95,KZ,1612296758
534,masindi,1.6744,31.715,72.73,30,0,3.49,UG,1612296759
535,mukhtolovo,55.4644,43.1953,9.63,96,36,1.12,RU,1612296761
536,gusau,12.1628,6.6614,77.4,17,0,9.98,NG,1612296763
537,dwarka,22.2394,68.9678,70.83,67,50,10.74,IN,1612296764
538,beipiao,41.7919,120.7792,2.91,80,75,1.45,CN,1612296765
539,cam ranh,11.9214,109.1591,75.2,64,20,8.05,VN,1612296766
540,pizhanka,57.4604,48.542,9.0,96,72,8.52,RU,1612296767
541,sanlucar de barrameda,36.7781,-6.3515,59.0,94,20,6.91,ES,1612296768
542,manggar,-2.8833,108.2667,79.07,84,93,14.27,ID,1612296769
543,nouadhibou,20.931,-17.0347,66.2,82,0,14.97,MR,1612296770
544,te anau,-45.4167,167.7167,55.78,87,100,2.06,NZ,1612296772
545,natal,-5.795,-35.2094,84.2,65,75,18.41,BR,1612296671
